State,District,Latitude,Longitude,District code,Population,Male,Female,Literate,Households_with_Internet,Sex_ratio,literacy_rate
Andhra Pradesh,Adilabad,19.28451395,78.81321233,532,2741239,1369597,1371642,1483347,5512,100.149314,54.1122828
Andhra Pradesh,Anantapur,14.31206556,77.46015845,553,4081148,2064495,2016653,2310960,8606,97.68262941,56.62524368
Andhra Pradesh,Chittoor,13.33109263,78.92763899,554,4174064,2090204,2083860,2667878,13763,99.69648896,63.9155988
Andhra Pradesh,East Godavari,16.78271832,82.24320747,545,5154296,2569688,2584608,3288577,22411,100.5806152,63.80264152
Andhra Pradesh,Guntur,15.88492577,80.58657614,548,4887813,2440521,2447292,2960441,19383,100.2774408,60.56780405
Andhra Pradesh,Hyderabad,17.38971556,78.46668889,536,3943323,2018575,1924748,2892155,149034,95.35181997,73.3430916
Andhra Pradesh,Karimnagar,18.51548319,79.43765429,534,3776269,1880800,1895469,2206829,8831,100.7799341,58.43940143
Andhra Pradesh,Khammam,17.68392133,80.67008644,541,2797370,1390988,1406382,1630234,8628,101.1066954,58.27738197
Andhra Pradesh,Krishna,16.14387275,81.14805061,547,4517398,2267375,2250023,3009718,30438,99.23470974,66.62503503
Andhra Pradesh,Kurnool,15.43759715,77.90086837,552,4053463,2039227,2014236,2127161,10081,98.77448661,52.47762222
Andhra Pradesh,Mahbubnagar,16.63954622,77.98933089,538,4053028,2050386,2002642,1940646,6153,97.67146284,47.88138646
Andhra Pradesh,Medak,17.88930498,78.13778902,535,3033288,1523030,1510258,1637137,8635,99.16140851,53.97235607
Andhra Pradesh,Nalgonda,17.11325052,79.16984454,539,3488809,1759772,1729037,2001019,7715,98.25346693,57.3553611
Andhra Pradesh,Nizamabad,18.42948585,78.07523491,533,2551335,1250641,1300694,1389810,5261,104.0021877,54.47383429
Andhra Pradesh,Prakasam,15.489039,80.1166579,549,3397448,1714764,1682684,1904435,6151,98.12918862,56.05486824
Andhra Pradesh,Srikakulam,18.570901,84.25874814,542,2703114,1341738,1361376,1495381,3988,101.463624,55.3206783
Andhra Pradesh,Vizianagaram,18.28329696,83.45982854,543,2344474,1161477,1182997,1238388,4453,101.8528133,52.82157106
Andhra Pradesh,Warangal,18.01752609,79.87422029,540,3512576,1759281,1753295,2065023,12952,99.65974736,58.78941836
Andhra Pradesh,West Godavari,16.63297944,81.45912991,546,3936966,1964918,1972048,2652389,12050,100.362865,67.37139716
Arunachal Pradesh,Changlang,27.36048479,96.37552645,253,148226,76948,71278,73174,170,92.63138743,49.3665079
Arunachal Pradesh,East Kameng,27.37119406,93.04741486,247,78690,38775,39915,38449,57,102.9400387,48.86135468
Arunachal Pradesh,East Siang,28.15382353,95.06499226,251,99214,50116,49098,62576,450,97.96871259,63.07174391
Arunachal Pradesh,Kurung Kumey,28.04853352,93.24531994,256,92076,45318,46758,36606,95,103.1775453,39.75628828
Arunachal Pradesh,Lohit,27.94678527,96.59670771,259,145726,76221,69505,83062,312,91.18878,56.99875108
Arunachal Pradesh,Lower Dibang Valley,28.3265173,95.76567336,258,54080,28053,26027,31849,207,92.77795601,58.89238166
Arunachal Pradesh,Lower Subansiri,27.70849297,93.96226108,255,83030,41843,41187,54057,381,98.43223478,65.1053836
Arunachal Pradesh,Papum Pare,27.27352972,93.54468184,248,176573,89182,87391,121048,2477,97.99174721,68.55408245
Arunachal Pradesh,Tawang,27.68068396,91.82504245,245,49977,29151,20826,26073,96,71.44180303,52.1699982
Arunachal Pradesh,Tirap,26.9440623,95.41470328,254,111975,57604,54371,47974,98,94.38754253,42.84349185
Arunachal Pradesh,Upper Siang,28.83092449,95.00155765,252,35320,18699,16621,18195,97,88.88710626,51.51472254
Arunachal Pradesh,Upper Subansiri,28.27719657,93.89914356,249,83448,41758,41690,45278,139,99.83715695,54.2589397
Arunachal Pradesh,West Kameng,27.46486582,92.6501575,246,83947,46155,37792,48492,202,81.88061965,57.7650184
Arunachal Pradesh,West Siang,28.10629692,94.53510344,250,112274,58168,54106,64746,303,93.01677899,57.6678483
Assam,Barpeta,26.42787226,90.9791201,303,1693622,867004,826618,897058,2078,95.34189,52.96683676
Assam,Bongaigaon,26.45012522,90.67342962,319,738804,375818,362986,434078,2523,96.58558132,58.7541486
Assam,Cachar,24.81557067,92.8684965,316,1736617,886284,850333,1174128,5316,95.94362529,67.61007177
Assam,Darrang,26.58463216,92.04141338,325,928500,475273,453227,487039,1166,95.36140281,52.4543888
Assam,Dhemaji,27.58653344,94.71336909,308,686133,351249,334884,423028,1192,95.340912,61.6539359
Assam,Dibrugarh,27.30612284,95.09982823,310,1326335,676434,649901,884531,8817,96.07751828,66.68986342
Assam,Goalpara,26.01727778,90.59869892,302,1008183,513292,494891,563577,1364,96.41510096,55.90026811
Assam,Golaghat,26.37721971,93.82583398,313,1066888,543161,523727,721764,3073,96.42205534,67.65133735
Assam,Hailakandi,24.45749609,92.59154665,318,659296,337890,321406,407366,1211,95.12148924,61.78802844
Assam,Jorhat,26.76244824,94.30197723,312,1092256,556805,535451,794929,5651,96.16490513,72.77863431
Assam,Kamrup,26.17093945,91.58863274,321,1517542,778461,739081,995319,3109,94.94130085,65.58757517
Assam,Karbi Anglong,26.08966455,93.1153657,314,956313,490167,466146,557214,1923,95.0994253,58.26690634
Assam,Karimganj,24.69660712,92.36794986,317,1228686,625864,602822,795297,1933,96.31836949,64.72744053
Assam,Kokrajhar,26.49724664,90.13997471,300,887142,452905,434237,489305,1218,95.87816429,55.15520627
Assam,Lakhimpur,27.14128806,94.07759493,307,1042137,529674,512463,683486,1948,96.75064285,65.58504304
Assam,Nagaon,26.26462171,92.93061911,305,2823768,1439112,1384656,1710716,5121,96.21599987,60.58273909
Assam,Nalbari,26.46323768,91.40598521,323,771639,396006,375633,531771,1631,94.85538098,68.91447944
Assam,Sonitpur,26.73514927,92.85197805,306,1924110,983904,940206,1108572,4358,95.55871305,57.61479333
Assam,Tinsukia,27.53549291,95.69055949,309,1327929,680231,647698,798322,5135,95.21735999,60.11782256
Bihar,Araria,26.21152812,87.30766555,209,2811569,1463333,1348236,1195768,2561,92.13459958,42.53027402
Bihar,Aurangabad,24.77429187,84.45986024,235,2540073,1318684,1221389,1466002,2362,92.62181084,57.71495544
Bihar,Aurangabad,24.77429187,84.45986024,515,3701282,1924469,1776813,2503837,23258,92.32744201,67.64783121
Maharashtra,Aurangabad,20.09792288,75.32072197,235,2540073,1318684,1221389,1466002,2362,92.62181084,57.71495544
Maharashtra,Aurangabad,20.09792288,75.32072197,515,3701282,1924469,1776813,2503837,23258,92.32744201,67.64783121
Bihar,Banka,24.83235564,86.86649163,225,2034763,1067140,967623,965321,1704,90.67441948,47.4414465
Bihar,Begusarai,25.54302613,86.12560144,222,2970541,1567660,1402881,1548673,4644,89.488856,52.13437552
Bihar,Bhagalpur,25.27719289,87.04213814,224,3037766,1615663,1422103,1573066,6764,88.01977888,51.78364627
Bihar,Bhojpur,25.50666439,84.49407803,231,2728407,1430380,1298027,1599151,3661,90.74700429,58.61116029
Bihar,Buxar,25.48593019,84.08808082,232,1706352,887977,818375,989807,1784,92.16173392,58.00719898
Bihar,Darbhanga,26.14618772,85.97387352,215,3937385,2059949,1877436,1816634,6280,91.13992628,46.13808403
Bihar,Gaya,24.72665415,84.94291218,236,4391418,2266566,2124852,2297613,6856,93.74763409,52.32052608
Bihar,Gopalganj,26.44874364,84.34636127,217,2562012,1267666,1294346,1382998,3707,102.1046553,53.98093373
Bihar,Jamui,24.7841838,86.26316298,238,1760405,916064,844341,858588,1839,92.1705252,48.77218595
Bihar,Jehanabad,25.15567905,84.92081245,239,1125313,585582,539731,618881,1106,92.17001206,54.99634324
Bihar,Katihar,25.56565356,87.70466084,212,3071029,1600430,1470599,1280190,2941,91.88774267,41.68602771
Bihar,Khagaria,25.53558891,86.56593256,223,1666886,883786,783100,768028,1580,88.60742306,46.07561645
Bihar,Kishanganj,26.32433676,87.95045007,210,1690400,866970,823430,745056,1093,94.97791158,44.07572172
Bihar,Lakhisarai,25.18344932,86.12825701,227,1000912,526345,474567,507270,1186,90.16272597,50.68077913
Bihar,Madhepura,25.77341929,86.8978444,213,2001762,1047559,954203,834577,1397,91.08823465,41.69211924
Bihar,Madhubani,26.41380538,86.1632836,207,4487379,2329313,2158066,2155338,5319,92.64817566,48.03111126
Bihar,Munger,25.19853796,86.54173673,226,1367765,729041,638724,801817,2653,87.61153351,58.62242417
Bihar,Muzaffarpur,26.18664417,85.32745092,216,4801062,2527497,2273565,2509232,10290,89.9532225,52.26410323
Bihar,Nalanda,25.22934551,85.48053114,229,2877653,1497060,1380593,1519933,4156,92.22028509,52.81849479
Bihar,Nawada,24.82570884,85.61594569,237,2219146,1144668,1074478,1091012,1841,93.86809101,49.16359717
Bihar,Pashchim Champaran,27.16064352,84.30265912,203,3935042,2061110,1873932,1759481,3495,90.91858271,44.7131441
Bihar,Patna,25.40297115,85.31984336,230,5838465,3078512,2759953,3459679,40692,89.65217612,59.25665393
Bihar,Purba Champaran,26.68129337,85.00382156,204,5099371,2681209,2418162,2276957,7719,90.18923926,44.65172273
Bihar,Purnia,25.81714802,87.40447607,211,3264619,1699370,1565249,1332326,4170,92.10760458,40.81107167
Bihar,Rohtas,24.99170461,83.93507627,234,2959918,1543546,1416372,1799832,4594,91.76091934,60.80681965
Bihar,Saharsa,25.8212707,86.5467082,214,1900661,997174,903487,804996,1668,90.60474902,42.35347597
Bihar,Samastipur,25.79320556,85.94833323,221,4261566,2230003,2031563,2142880,5379,91.10135726,50.28386279
Bihar,Saran,25.89656078,84.82266287,219,3951862,2022821,1929041,2157454,4509,95.36390022,54.59335372
Bihar,Sheikhpura,25.12472437,85.77839391,228,636342,329743,306599,328676,631,92.98120051,51.65084184
Bihar,Sheohar,26.45838075,85.29539412,205,656246,346673,309573,283698,478,89.29827244,43.23043493
Bihar,Sitamarhi,26.5657007,85.61172491,206,3423574,1803252,1620322,1436794,3460,89.85554986,41.96766303
Bihar,Siwan,26.1736372,84.33766553,218,3330464,1675090,1655374,1930175,3834,98.82298862,57.95513778
Bihar,Supaul,26.28157894,86.78496465,208,2229076,1155283,1073793,1033283,1845,92.94631705,46.35476763
Bihar,Vaishali,25.81347032,85.39247597,220,3495021,1844535,1650486,1926740,4810,89.47978759,55.128138
Chandigarh,Chandigarh,30.7426,76.75872466,55,1055450,580663,474787,805438,44283,81.76636018,76.31228386
Chhattisgarh,Bastar,19.39386675,81.52895127,414,1413199,698487,714712,650863,1782,102.3228779,46.05600485
Chhattisgarh,Bilaspur,22.35694298,81.99770351,30,381956,192764,189192,287620,1574,98.1469569,75.30186723
Chhattisgarh,Bilaspur,22.35694298,81.99770351,406,2663629,1351574,1312055,1596560,8566,97.07607575,59.93927833
Himachal Pradesh,Bilaspur,31.37804229,76.65316079,30,381956,192764,189192,287620,1574,98.1469569,75.30186723
Himachal Pradesh,Bilaspur,31.37804229,76.65316079,406,2663629,1351574,1312055,1596560,8566,97.07607575,59.93927833
Chhattisgarh,Dhamtari,20.55491263,81.75691955,412,799781,397897,401884,546833,1016,101.0020181,68.37284207
Chhattisgarh,Durg,21.19446385,81.3318164,409,3343872,1682101,1661771,2303378,16141,98.79139243,68.88355774
Chhattisgarh,Jashpur,22.77286168,83.87039621,402,851669,424747,426922,495415,567,100.5120695,58.16989934
Chhattisgarh,Korba,22.4917125,82.57604327,404,1206640,612915,593725,748759,4544,96.86906015,62.05322217
Chhattisgarh,Koriya,23.50412777,82.12515636,400,658917,334737,324180,397823,1667,96.84618073,60.37528247
Chhattisgarh,Mahasamund,21.22372704,82.65925427,411,1032754,511967,520787,637963,961,101.7227673,61.77298757
Chhattisgarh,Raigarh,22.00826507,83.27797699,403,1493984,750278,743706,951639,3342,99.12405802,63.69807173
Chhattisgarh,Raigarh,22.00826507,83.27797699,520,2634200,1344345,1289855,1939994,38570,95.94672499,73.64642017
Maharashtra,Raigarh,18.45325764,73.00906094,403,1493984,750278,743706,951639,3342,99.12405802,63.69807173
Maharashtra,Raigarh,18.45325764,73.00906094,520,2634200,1344345,1289855,1939994,38570,95.94672499,73.64642017
Chhattisgarh,Raipur,20.88603154,82.2003276,410,4063872,2048186,2015686,2629749,20261,98.41323005,64.71042887
Chhattisgarh,Surguja,23.32719279,83.23582494,401,2359886,1193129,1166757,1187941,2737,97.78967739,50.33891468
Daman and Diu,Daman,20.43161667,72.83923661,495,191173,124659,66514,150348,1316,53.35675723,78.64499694
Daman and Diu,Junagadh,20.72568199,70.8398564,479,2743082,1404356,1338726,1842818,6628,95.32668355,67.18056551
Gujarat,Junagadh,20.92952301,70.5473389,479,2743082,1404356,1338726,1842818,6628,95.32668355,67.18056551
Goa,North Goa,15.54872342,73.80667998,585,818008,416677,401331,663060,23440,96.31705134,81.05788696
Goa,South Goa,15.19527866,73.9417926,586,640537,322463,318074,502427,17624,98.63891361,78.43840403
Gujarat,Ahmadabad,22.60542556,72.23898136,474,7214225,3788051,3426174,5435760,126341,90.44688152,75.34780243
Gujarat,Amreli,21.04832649,71.43457638,480,1514190,771049,743141,995459,2538,96.38051538,65.74201388
Gujarat,Anand,22.28271821,72.57782052,482,2092745,1087224,1005521,1551253,9902,92.48517325,74.12527565
Gujarat,Banas Kantha,24.25853897,71.93205253,469,3120506,1610379,1510127,1704923,3424,93.77463318,54.63610709
Gujarat,Bharuch,21.75787276,72.67326347,488,1551019,805707,745312,1118276,10257,92.50409888,72.09943914
Gujarat,Bhavnagar,21.7021939,72.16272633,481,2880365,1490201,1390164,1887255,7297,93.28701296,65.52138357
Gujarat,Gandhinagar,23.19367979,72.6722168,473,1391753,723864,667889,1030494,12107,92.26719384,74.04287974
Gujarat,Jamnagar,22.41060041,69.62062006,477,2160119,1114192,1045927,1396534,11573,93.87313856,64.65079007
Gujarat,Kachchh,23.48057203,68.82192301,468,2092371,1096737,995634,1252319,9631,90.78147268,59.85167066
Gujarat,Kheda,22.88765313,73.01880352,483,2299885,1185727,1114158,1660243,5710,93.96412496,72.18808767
Gujarat,Mahesana,23.52935545,72.45545194,471,2035064,1056520,978544,1502645,7759,92.61954341,73.83772697
Gujarat,Narmada,21.70666386,73.68403209,487,590297,301086,289211,370336,576,96.05594415,62.73723227
Gujarat,Navsari,20.86697332,72.8618487,490,1329672,678165,651507,1001909,6726,96.06909823,75.35008634
Gujarat,Panch Mahals,22.80435607,73.61984598,484,2390776,1226961,1163815,1440805,3456,94.85346315,60.26516077
Gujarat,Patan,23.80634198,71.75162977,470,1343734,694397,649337,837913,2231,93.51091667,62.35705876
Gujarat,Porbandar,21.55092352,69.71896988,478,585449,300209,285240,393678,1653,95.01380705,67.24377358
Gujarat,Rajkot,22.40603378,70.83679439,476,3804558,1974445,1830113,2725056,21785,92.68999643,71.62608639
Gujarat,Sabar Kantha,23.71803595,73.1363879,472,2428589,1244231,1184358,1578734,5262,95.18795143,65.00622378
Gujarat,Surat,21.25761373,72.93488716,492,6081322,3402224,2679098,4571410,55694,78.74549118,75.17131966
Gujarat,Surendranagar,22.82672007,71.48358741,475,1756268,909917,846351,1093626,2975,93.0140881,62.26988136
Gujarat,The Dangs,20.80163388,73.68835184,489,228291,113821,114470,140968,137,100.5701935,61.74925862
Gujarat,Vadodara,22.26133739,73.4943301,486,4165626,2153736,2011890,2893080,53606,93.41395603,69.45126615
Gujarat,Valsad,20.44238232,72.91485848,491,1705678,887222,818456,1170657,11020,92.24929048,68.63294244
Haryana,Ambala,30.35036723,76.94970311,70,1128350,598703,529647,818025,12899,88.46573343,72.49745203
Haryana,Bhiwani,28.72886806,76.02110226,81,1634445,866672,767773,1069871,5292,88.58864715,65.45775477
Haryana,Faridabad,28.1487311,77.32718537,88,1809733,966110,843623,1272739,43437,87.32163004,70.32744609
Haryana,Fatehabad,29.57298319,75.54608717,78,942011,495360,446651,557578,3210,90.16694929,59.19017931
Haryana,Gurgaon,28.04389479,77.0193513,86,1514432,816690,697742,1111116,67087,85.43535491,73.36849723
Haryana,Hisar,29.23628731,75.84324683,80,1743931,931562,812369,1114311,10132,87.20503842,63.89650737
Haryana,Jhajjar,28.59651868,76.61137143,83,958405,514667,443738,676091,5034,86.21846748,70.54335067
Haryana,Jind,29.45149822,76.29598576,77,1334152,713006,621146,832758,5263,87.11651795,62.41852503
Haryana,Kaithal,29.96068539,76.3769893,73,1074304,571003,503301,646529,3724,88.14331974,60.18119638
Haryana,Karnal,29.70320065,76.87488026,74,1505324,797712,707612,978013,11163,88.70519686,64.97026554
Haryana,Kurukshetra,30.0565266,76.7877468,72,964655,510976,453679,646893,7356,88.78675319,67.05951869
Haryana,Mahendragarh,28.13521615,76.14018073,84,922088,486665,435423,630255,2624,89.47078586,68.35085155
Haryana,Panchkula,30.70089714,76.97173238,69,561293,299679,261614,405318,18615,87.29807561,72.21148313
Haryana,Panipat,29.34352134,76.92895915,75,1205437,646857,558580,786599,10024,86.35293427,65.25426049
Haryana,Rewari,28.19164715,76.55956008,85,900332,474335,425997,636947,5121,89.80931198,70.74579155
Haryana,Rohtak,28.89251765,76.53123235,82,1061204,568479,492725,747582,8482,86.67426589,70.44658708
Haryana,Sirsa,29.63583446,74.9097048,79,1295189,682582,612607,782897,6287,89.74848443,60.44654487
Himachal Pradesh,Chamba,32.66741815,76.39354063,23,519080,261320,257760,323842,1615,98.6376856,62.38768591
Himachal Pradesh,Hamirpur,31.67668481,76.49767089,28,454768,217070,237698,358091,2521,109.5029253,78.74146818
Himachal Pradesh,Hamirpur,31.67668481,76.49767089,168,1104285,593537,510748,653299,1196,86.05158566,59.16036168
Uttar Pradesh,Hamirpur,25.73815838,79.8261948,28,454768,217070,237698,358091,2521,109.5029253,78.74146818
Uttar Pradesh,Hamirpur,25.73815838,79.8261948,168,1104285,593537,510748,653299,1196,86.05158566,59.16036168
Himachal Pradesh,Kangra,32.14093603,76.41205911,24,1510075,750591,759484,1152640,8053,101.1847997,76.32998361
Himachal Pradesh,Kinnaur,31.60667184,78.51613736,34,84121,46249,37872,60699,354,81.88717594,72.15677417
Himachal Pradesh,Kullu,31.90911922,77.40922649,26,437903,225452,212451,307672,2623,94.23336231,70.26030879
Himachal Pradesh,Mandi,31.63580594,76.96556931,27,999777,498065,501712,723747,5333,100.7322337,72.39084316
Himachal Pradesh,Shimla,31.15572545,77.62573042,33,814010,425039,388971,612642,9177,91.51419046,75.26222037
Himachal Pradesh,Sirmaur,30.68276445,77.4318469,32,529855,276289,253566,362645,2220,91.77564072,68.44230969
Himachal Pradesh,Solan,31.03864312,76.94442141,31,580320,308754,271566,428578,5250,87.95545969,73.85201268
Himachal Pradesh,Una,31.58330388,76.18353932,29,521173,263692,257481,399715,2412,97.64460052,76.69526242
Jammu and Kashmir,Doda,33.35961468,76.0716372,16,409936,213641,196295,219083,596,91.88077195,53.44322041
Jammu and Kashmir,Jammu,32.7131991,74.84775204,21,1529958,813821,716137,1137135,19905,87.99686909,74.3245893
Jammu and Kashmir,Kargil,33.56599489,76.63675315,4,140802,77785,63017,86236,235,81.01433438,61.24628912
Jammu and Kashmir,Kathua,32.51781678,75.58901399,7,616435,326109,290326,389204,1443,89.02728842,63.13788153
Jammu and Kashmir,Pulwama,33.88414419,75.0092186,12,560440,293064,267376,293958,1537,91.23467911,52.45128827
Jammu and Kashmir,Punch,33.79124129,74.29593161,5,476835,251899,224936,261724,346,89.29610677,54.88774943
Jammu and Kashmir,Srinagar,34.27312899,75.11021159,10,1236829,651124,585705,748584,16413,89.95291219,60.52445407
Jammu and Kashmir,Udhampur,33.04770671,75.15286951,19,554985,296784,258201,322354,1214,86.9996361,58.08337162
Jharkhand,Bokaro,23.6814965,85.98398374,355,2062330,1072807,989523,1273520,9754,92.23681426,61.75151406
Jharkhand,Chatra,24.11619946,84.93295805,347,1042886,533935,508951,510061,590,95.32077875,48.90860554
Jharkhand,Deoghar,24.33070101,86.75697632,350,1492073,775022,717051,793538,1944,92.5200833,53.18359088
Jharkhand,Dhanbad,23.85450909,86.40372925,354,2684487,1405956,1278531,1722204,11568,90.93677185,64.15393332
Jharkhand,Dumka,24.27500613,87.2766245,362,1321442,668514,652928,672409,1193,97.66856042,50.88448831
Jharkhand,Garhwa,24.08211469,83.68664266,346,1322784,683575,639209,653476,565,93.50970998,49.40156518
Jharkhand,Giridih,24.3057851,86.08710916,349,2445474,1258098,1187376,1253475,1944,94.37865731,51.25693424
Jharkhand,Godda,24.8189,87.29417355,351,1313551,677927,635624,604519,874,93.7599476,46.02173802
Jharkhand,Gumla,23.07853295,84.55056787,366,1025213,514390,510823,559720,831,99.30655728,54.59548406
Jharkhand,Jamtara,23.97873318,86.9532508,363,791042,404830,386212,426312,808,95.40103253,53.89246083
Jharkhand,Latehar,23.72511186,84.48298743,359,726978,369666,357312,350682,340,96.65806431,48.23832358
Jharkhand,Lohardaga,23.48879604,84.66051691,356,461790,232629,229161,259707,351,98.50921424,56.23919964
Jharkhand,Pakur,24.57260428,87.69691969,353,900422,452661,447761,352881,328,98.91751222,39.19062395
Jharkhand,Palamu,24.19692597,84.20310843,358,1939869,1006302,933567,1024563,2155,92.77205054,52.81609222
Jharkhand,Ranchi,23.18423506,85.31781937,364,2914253,1494937,1419316,1911433,22538,94.94152596,65.58912352
Jharkhand,Sahibganj,24.9366799,87.68264098,352,1150567,589391,561176,483263,591,95.2128553,42.00216067
Jharkhand,Simdega,22.60876039,84.59193692,367,599578,300309,299269,343483,423,99.65369003,57.28745885
Karnataka,Bagalkot,16.15860676,75.64526071,556,1889752,950111,939641,1113412,3745,98.89802349,58.91841892
Karnataka,Bangalore Rural,12.93682709,77.47369315,583,990923,509172,481751,688749,3729,94.61458996,69.50580418
Karnataka,Belgaum,16.16107219,74.72329042,555,4779661,2423063,2356598,3052032,17560,97.25698424,63.85457044
Karnataka,Bellary,15.07437755,76.47228471,565,2452595,1236954,1215641,1421621,9626,98.27697716,57.96395247
Karnataka,Bidar,17.95036173,77.19459962,558,1703300,870665,832635,1042673,3971,95.63207433,61.214877
Karnataka,Bijapur,16.84015317,75.95909167,417,255230,128663,126567,86919,117,98.37093803,34.05516593
Karnataka,Bijapur,16.84015317,75.95909167,557,2177331,1111022,1066309,1248268,4987,95.97550724,57.33019004
Karnataka,Chikmagalur,13.42528829,75.67626502,570,1137961,566622,571339,818345,4510,100.8324774,71.91327295
Karnataka,Chitradurga,14.2910222,76.57821957,566,1659456,840843,818613,1087392,5711,97.35622465,65.52701608
Karnataka,Davanagere,14.33041459,75.91723841,567,1945497,986400,959097,1308540,7320,97.23205596,67.25993409
Karnataka,Dharwad,15.34383138,75.13831264,562,1847023,937206,909817,1301664,15013,97.0775902,70.47362161
Karnataka,Gadag,15.50712826,75.64861303,561,1064570,537147,527423,700177,3373,98.18969481,65.77087463
Karnataka,Gulbarga,17.07045952,76.8750385,579,2566326,1301755,1264571,1427368,9752,97.14354852,55.61912243
Karnataka,Hassan,12.94509875,76.1104955,574,1776421,883667,892754,1225256,4851,101.0283285,68.97328955
Karnataka,Haveri,14.73758281,75.39612306,564,1597668,819128,778540,1085443,2456,95.04497466,67.9392089
Karnataka,Kodagu,12.39684468,75.79336596,576,554519,274608,279911,412877,3308,101.9311164,74.45678146
Karnataka,Kolar,13.31279988,78.01376948,581,1536401,776396,760005,1016219,5051,97.88883508,66.14282339
Karnataka,Koppal,15.65125327,76.16170486,560,1389920,699926,689994,809085,2135,98.58099285,58.21090422
Karnataka,Mandya,12.57490181,76.81570099,573,1805769,905085,900684,1149649,3367,99.51374733,63.66534147
Karnataka,Mysore,12.24810026,76.52881803,577,3001127,1511600,1489527,1962180,28397,98.5397592,65.38143837
Karnataka,Raichur,16.05079535,76.87368606,559,1928812,964511,964301,979769,5200,99.97822731,50.79650064
Karnataka,Shimoga,14.06384589,75.17882078,568,1752753,877415,875338,1263016,8791,99.76328191,72.05898378
Karnataka,Tumkur,13.59246776,77.02297966,571,2678980,1350594,1328386,1813391,7971,98.35568646,67.68960575
Karnataka,Udupi,13.45040423,74.7200999,569,1177361,562131,615230,926429,9070,109.4460188,78.68691081
Kerala,Alappuzha,9.542602966,76.38010796,598,2127789,1013142,1114647,1852797,28842,110.0188325,87.07616216
Kerala,Ernakulam,10.0048793,76.26957729,595,3282388,1619557,1662831,2855676,88737,102.6719652,86.99995247
Kerala,Idukki,9.804809639,77.04586642,596,1108974,552808,556166,923010,8250,100.6074442,83.23098648
Kerala,Kannur,11.94152308,75.35209892,589,2523003,1181446,1341557,2138434,32653,113.5521217,84.75748939
Kerala,Kasaragod,12.3331031,75.07768497,588,1307375,628613,678762,1037492,10378,107.9777224,79.35687924
Kerala,Kollam,8.929388821,76.63607759,600,2635375,1246968,1388407,2240273,31542,111.3426327,85.00775032
Kerala,Kottayam,9.643701174,76.46059673,597,1974551,968289,1006262,1749798,37849,103.9216598,88.61751355
Kerala,Kozhikode,11.39292427,75.7115872,591,3086293,1470942,1615351,2615443,36791,109.8174503,84.74383346
Kerala,Malappuram,10.97329876,75.93910776,592,4112920,1960328,2152592,3311315,27909,109.8077465,80.51007557
Kerala,Palakkad,10.7849269,76.49980491,593,2809934,1359478,1450456,2239492,27162,106.6921274,79.69909614
Kerala,Thiruvananthapuram,8.537101759,76.88711503,601,3301427,1581678,1719749,2785408,71621,108.7294,84.36981948
Kerala,Thrissur,10.45893265,76.12321941,594,3121200,1480763,1640437,2678548,56148,110.7832246,85.81789055
Kerala,Wayanad,11.71527746,76.07587007,590,817420,401684,415736,645585,4712,103.4982723,78.97837097
Madhya Pradesh,Anuppur,23.1818422,81.8656,461,749237,379114,370123,436595,1290,97.62841784,58.27194866
Madhya Pradesh,Ashoknagar,24.63098846,77.82974494,459,845071,443837,401234,469109,619,90.40120585,55.51119373
Madhya Pradesh,Balaghat,21.80020721,80.42170053,457,1701698,842178,859520,1147623,1712,102.0591846,67.43987476
Madhya Pradesh,Barwani,21.70213571,74.9100472,441,1385881,699340,686541,549926,1158,98.16984585,39.6806075
Madhya Pradesh,Betul,21.96462632,77.78734282,447,1575362,799236,776126,939769,2109,97.10848861,59.65416203
Madhya Pradesh,Bhind,26.35951126,78.76183243,420,1703005,926843,776162,1094917,1166,83.74255402,64.29323461
Madhya Pradesh,Bhopal,23.48072614,77.39246623,444,2371061,1236130,1134931,1660690,40788,91.81323971,70.03995258
Madhya Pradesh,Burhanpur,21.36456725,76.24460479,467,757847,388504,369343,408679,986,95.06800445,53.92632022
Madhya Pradesh,Chhatarpur,24.81363738,79.56449299,425,1762375,936121,826254,943033,1880,88.26358986,53.50921342
Madhya Pradesh,Chhindwara,22.22796697,78.76413136,455,2090922,1064468,1026454,1294198,3588,96.42882642,61.89604395
Madhya Pradesh,Damoh,23.76624408,79.47049303,428,1264219,661873,602346,747715,1432,91.00628066,59.14442039
Madhya Pradesh,Datia,25.9022644,78.63916571,422,786754,420157,366597,491445,616,87.25238423,62.46488737
Madhya Pradesh,Dewas,22.785111,76.46088806,437,1563715,805359,758356,925369,3518,94.16372078,59.1775995
Madhya Pradesh,Dhar,22.57268172,75.11056207,438,2185793,1112725,1073068,1077338,2388,96.43604664,49.28819884
Madhya Pradesh,Dindori,22.83738437,81.04332967,453,704524,351913,352611,378714,554,100.1983445,53.75459175
Madhya Pradesh,Guna,24.49043927,77.2235896,458,1241519,649362,592157,653980,2482,91.19058399,52.67579473
Madhya Pradesh,Gwalior,26.04074442,78.12782433,421,2032036,1090327,941709,1357210,15779,86.36941028,66.79064741
Madhya Pradesh,Harda,22.22765978,77.07022572,448,570465,294838,275627,352550,986,93.48421845,61.80046103
Madhya Pradesh,Hoshangabad,22.5952688,78.02168095,449,1241350,648725,592625,810644,2871,91.35226791,65.30341966
Madhya Pradesh,Indore,22.68026575,75.91338013,439,3276697,1699627,1577070,2309130,48691,92.78918257,70.47127031
Madhya Pradesh,Jabalpur,23.18525572,79.98328755,451,2463289,1277278,1186011,1756468,20443,92.85457042,71.30580293
Madhya Pradesh,Jhabua,22.41957802,74.40921617,464,1025048,515023,510025,352081,744,99.0295579,34.34775737
Madhya Pradesh,Katni,23.72441623,80.33819666,450,1292042,662013,630029,790773,2179,95.16867494,61.20335097
Madhya Pradesh,Mandla,22.70348712,80.38600544,454,1054905,525272,529633,604962,912,100.8302365,57.34753366
Madhya Pradesh,Mandsaur,24.19278764,75.43588668,433,1340411,682851,657560,834591,2324,96.29626375,62.26381311
Madhya Pradesh,Morena,26.37313505,77.88447341,419,1965970,1068417,897553,1179685,1781,84.0077423,60.00523914
Madhya Pradesh,Neemuch,24.70311893,75.06608187,432,826067,422653,403414,508834,1945,95.44803894,61.5971828
Madhya Pradesh,Panna,24.45132584,80.21133001,426,1016520,533480,483040,552559,653,90.5451001,54.35790737
Madhya Pradesh,Raisen,23.29251821,78.16305496,446,1331597,700358,631239,820220,1141,90.13090448,61.59671432
Madhya Pradesh,Rajgarh,23.78549903,76.66431224,442,1545814,790212,755602,804245,1611,95.62016269,52.02728142
Madhya Pradesh,Ratlam,23.50356229,75.14895782,434,1455069,738241,716828,825880,3644,97.09945668,56.75882037
Madhya Pradesh,Rewa,24.86118463,81.57572465,430,2365106,1225100,1140006,1441757,3406,93.05411803,60.95950879
Madhya Pradesh,Sagar,23.80031871,78.71940358,427,2378458,1256257,1122201,1545719,4546,89.32893508,64.98828232
Madhya Pradesh,Satna,24.62777622,80.75547049,429,2228935,1157495,1071440,1371781,3754,92.56541065,61.54423525
Madhya Pradesh,Sehore,22.92971997,77.06780203,445,1311332,683743,627589,780362,1566,91.7872651,59.50910982
Madhya Pradesh,Seoni,22.33230488,79.66053864,456,1379131,695879,683252,864194,1182,98.1854604,62.66221265
Madhya Pradesh,Shahdol,23.44859865,81.45968318,460,1066063,540021,526042,604194,1733,97.41139696,56.67526216
Madhya Pradesh,Shajapur,23.56662032,76.33555181,436,1512681,780520,732161,894612,1382,93.8042587,59.14082348
Madhya Pradesh,Sheopur,25.78014811,77.16911117,418,687861,361784,326077,328025,273,90.13029874,47.6876869
Madhya Pradesh,Shivpuri,25.37802452,77.74861601,423,1726050,919795,806255,900846,1852,87.65594507,52.19118797
Madhya Pradesh,Sidhi,24.1754719,82.10537834,462,1127033,575912,551121,600785,837,95.69534929,53.30677984
Madhya Pradesh,Tikamgarh,25.14099852,78.89357065,424,1445166,760355,684811,747940,1090,90.06464086,51.75460812
Madhya Pradesh,Ujjain,23.31928886,75.80383718,435,1986864,1016289,970575,1240990,7501,95.50187004,62.45973554
Madhya Pradesh,Umaria,23.59601063,80.90879477,431,644758,330674,314084,356672,839,94.98297417,55.31873974
Madhya Pradesh,Vidisha,23.82838308,77.90135076,443,1458875,769568,689307,862918,1926,89.57064223,59.14955017
Maharashtra,Akola,20.74631048,77.1212232,501,1813906,932334,881572,1411281,6163,94.55538466,77.80342532
Maharashtra,Amravati,21.16520992,77.67583503,503,2888445,1480768,1407677,2251875,9438,95.06398031,77.96149831
Maharashtra,Bhandara,21.21179265,80.109502,506,1200334,605520,594814,899860,2932,98.23193288,74.96746739
Maharashtra,Bid,18.95235334,75.69319706,523,2585049,1349106,1235943,1718507,5614,91.61200084,66.47870118
Maharashtra,Buldana,20.56680611,76.3901788,500,2586258,1337560,1248698,1879874,4767,93.35641018,72.68702504
Maharashtra,Chandrapur,20.09560909,79.3155638,509,2204307,1123834,1080473,1578615,8239,96.14168996,71.61502459
Maharashtra,Dhule,21.27401869,74.58719072,498,2050862,1054031,996831,1293916,6065,94.57321464,63.09132453
Maharashtra,Gondiya,21.22500841,80.17522699,507,1322507,661554,660953,1004243,2866,99.9091533,75.93479656
Maharashtra,Hingoli,19.59525302,77.09239413,512,1177345,606294,571051,790743,1221,94.18714353,67.16323592
Maharashtra,Jalgaon,20.88289434,75.55140422,499,4229917,2197365,2032552,2891882,14297,92.49951647,68.36734622
Maharashtra,Jalna,19.98461253,75.98473607,514,1959046,1011473,947573,1195523,3791,93.6824809,61.02577479
Maharashtra,Kolhapur,16.44881302,74.12897151,530,3876001,1980658,1895343,2825845,22269,95.69259307,72.90619894
Maharashtra,Latur,18.34868727,76.75812608,524,2454196,1273140,1181056,1650672,6217,92.76717407,67.25917571
Maharashtra,Nagpur,21.19655686,79.02166176,505,4653570,2384975,2268595,3673808,57964,95.12028428,78.94601349
Maharashtra,Nanded,19.20931698,77.6829049,511,3361292,1730075,1631217,2189425,7548,94.28591246,65.13641183
Maharashtra,Nandurbar,21.52317563,74.32638757,497,1648295,833170,815125,906509,2579,97.8341755,54.99676939
Maharashtra,Nashik,20.26691287,74.03824168,516,6107187,3157186,2950001,4345366,45039,93.43766886,71.15167752
Maharashtra,Osmanabad,18.19459456,75.99495575,525,1657576,861535,796041,1137810,3209,92.39798731,68.64300641
Maharashtra,Parbhani,19.31032425,76.70163339,513,1836086,942870,893216,1157814,3982,94.73373848,63.05881097
Maharashtra,Pune,18.51696171,74.12922882,521,9429408,4924105,4505303,7171723,235018,91.49486049,76.05698046
Maharashtra,Ratnagiri,17.21019507,73.25725894,528,1615069,761121,853948,1199392,7752,112.1960897,74.26258569
Maharashtra,Sangli,17.15493018,74.70713823,531,2822143,1435728,1386415,2049467,13212,96.56529649,72.62094798
Maharashtra,Satara,17.6737909,74.18052064,527,3003741,1510842,1492899,2225694,14093,98.81238409,74.09740054
Maharashtra,Sindhudurg,16.17094805,73.51329008,529,849651,417332,432319,666067,3517,103.5911457,78.39301078
Maharashtra,Solapur,17.83735794,75.42394824,526,4317756,2227852,2089904,2910676,15145,93.80802675,67.41177593
Maharashtra,Thane,19.69876775,72.79882743,517,11060148,5865078,5195070,8227161,256170,88.57631561,74.38563209
Maharashtra,Wardha,20.80743024,78.57259106,504,1300774,668385,632389,1019458,4313,94.61448117,78.37318397
Maharashtra,Washim,20.28228239,77.25502394,502,1197160,620302,576858,869917,1875,92.9963147,72.6650573
Maharashtra,Yavatmal,20.04258347,78.05326372,510,2772348,1419965,1352383,2022574,6094,95.24058692,72.95527113
Manipur,Bishnupur,24.50712112,93.8246236,275,237399,118782,118617,156333,676,99.86109006,65.85242566
Manipur,Chandel,24.2635813,94.09443844,280,144182,74579,69603,90302,184,93.3278805,62.63056415
Manipur,Churachandpur,24.30309719,93.38671506,274,274143,138820,135323,195935,837,97.48091053,71.4718231
Manipur,Senapati,25.08465586,94.03366234,272,479148,247323,231825,264477,256,93.73370046,55.1973503
Manipur,Tamenglong,24.98312942,93.4945074,273,140651,72371,68280,85006,125,94.34718326,60.43753688
Manipur,Thoubal,24.54539255,93.97959894,276,422168,210845,211323,269304,880,100.2267068,63.79071839
Manipur,Ukhrul,25.05900315,94.44129567,279,183998,94718,89280,129829,276,94.25874702,70.56000609
Meghalaya,East Garo Hills,25.82728228,90.64684925,294,317917,161223,156694,192147,288,97.19084746,60.43935996
Meghalaya,East Khasi Hills,25.30376389,91.7592252,298,825922,410749,415173,578030,5032,101.0770568,69.98602774
Meghalaya,Jaintia Hills,25.33959557,92.3760816,299,395124,196285,198839,187527,510,101.3011692,47.46029095
Meghalaya,South Garo Hills,25.24056858,90.64560349,295,142334,73170,69164,82062,179,94.52507858,57.65453089
Meghalaya,West Garo Hills,25.49528519,90.03709947,293,643291,324159,319132,358702,1630,98.44921782,55.76045678
Meghalaya,West Khasi Hills,25.50088993,91.25364542,296,383461,193715,189746,230678,149,97.95111375,60.15683472
Mizoram,Aizawl,23.90781335,92.85359459,283,400309,199270,201039,340595,4019,100.8877403,85.08302336
Mizoram,Champhai,23.54166581,93.24221799,284,125745,63388,62357,100802,186,98.37350918,80.16382361
Mizoram,Kolasib,24.20200043,92.73470391,282,83955,42918,41037,65895,367,95.61722354,78.48847597
Mizoram,Lawngtlai,22.36102843,92.66964157,287,117894,60599,57295,62861,162,94.54776481,53.31993146
Mizoram,Lunglei,23.00771704,92.63512555,286,161428,82891,78537,121122,482,94.74731877,75.03159303
Mizoram,Mamit,23.73852943,92.43308038,281,86364,44828,41536,60191,90,92.65637548,69.69454865
Mizoram,Saiha,22.35744801,93.02827931,288,56574,28594,27980,42233,168,97.85269637,74.65089971
Mizoram,Serchhip,23.26386471,92.9141585,285,64937,32851,32086,54476,131,97.67130377,83.89054006
Nagaland,Dimapur,25.81417681,93.75074058,265,378811,197394,181417,278037,3303,91.90603564,73.39728783
Nagaland,Kohima,25.60311429,93.78600658,270,267988,138966,129022,197489,1928,92.84429285,73.69322507
Nagaland,Mokokchung,26.47891176,94.52242601,262,194622,101092,93530,159494,537,92.51968504,81.95065306
Nagaland,Mon,26.69207374,95.03072989,261,250260,131753,118507,119626,178,89.94633898,47.80068729
Nagaland,Phek,25.63272987,94.56814564,266,163418,83743,79675,105893,170,95.14228055,64.79885937
Nagaland,Tuensang,26.21104453,94.85809881,267,196596,101933,94663,117511,155,92.86786419,59.77283363
Nagaland,Wokha,26.20261155,94.19908152,264,166343,84505,81838,128208,198,96.84397373,77.07447864
Nagaland,Zunheboto,26.02817821,94.50026667,263,140757,71217,69540,102881,261,97.64522516,73.09121394
Orissa,Baleshwar,21.48570932,87.08085828,377,2320529,1185787,1134742,1621232,7370,95.69526399,69.86475929
Orissa,Bhadrak,20.95262735,86.81496205,378,1506337,760260,746077,1094140,2637,98.134454,72.6358046
Orissa,Cuttack,20.40764065,85.77768102,381,2624470,1352760,1271710,2011469,15046,94.00854549,76.64286504
Orissa,Dhenkanal,20.79887159,85.53226836,383,1192811,612593,580218,829910,1810,94.71508816,69.5759848
Orissa,Gajapati,19.12108088,84.14015092,389,577817,282882,294935,262537,635,104.2607872,45.43601175
Orissa,Ganjam,19.26326176,84.8029771,388,3529031,1779218,1749813,2210050,9049,98.34730764,62.62483951
Orissa,Jharsuguda,21.82705857,83.93581682,371,579505,296690,282815,405879,2498,95.32340153,70.03891252
Orissa,Kalahandi,19.78425309,83.11240438,395,1576869,787101,789768,802036,1953,100.3388383,50.86256373
Orissa,Kandhamal,20.09287862,84.02216353,390,733110,359945,373165,399786,768,103.6727833,54.53288047
Orissa,Kendrapara,20.60631982,86.83763248,379,1440361,717814,722547,1089265,1628,100.659363,75.62444415
Orissa,Khordha,20.05416232,85.52234834,386,2251673,1167137,1084536,1749936,35701,92.92276742,77.71714632
Orissa,Koraput,18.82627795,82.8127847,398,1379647,678809,700838,568090,3988,103.2452428,41.17647485
Orissa,Malkangiri,18.2522793,81.98293636,399,613192,303624,309568,244706,448,101.9576845,39.90691333
Orissa,Mayurbhanj,21.89762155,86.40304081,376,2519738,1256213,1263525,1369397,2950,100.5820669,54.34680114
Orissa,Nayagarh,20.19289562,85.056147,385,962789,502636,460153,688362,1163,91.54795916,71.4966623
Orissa,Nuapada,20.47130951,82.59152537,394,610382,301962,308420,299383,757,102.1386797,49.04846473
Orissa,Puri,19.83509175,85.8669899,387,1698730,865380,833350,1291939,3416,96.29873582,76.053228
Orissa,Rayagada,19.29284002,83.4586012,396,967911,471960,495951,407735,1553,105.0832698,42.12525738
Orissa,Sambalpur,21.51575238,84.34958483,372,1041099,526877,514222,703691,5231,97.59811113,67.59117048
Orissa,Sundargarh,22.06354819,84.50524819,374,2093437,1061147,1032290,1342322,12787,97.28058412,64.12048703
Puducherry,Karaikal,10.87616173,79.82369794,637,200222,97809,102413,154916,1868,104.7071333,77.37211695
Puducherry,Mahe,12.00642079,75.28275022,636,41816,19143,22673,36470,574,118.4401609,87.21541993
Puducherry,Yanam,16.70769565,82.26187304,634,55626,27301,28325,39274,207,103.7507784,70.60367454
Punjab,Amritsar,31.54867982,74.79883857,49,2490656,1318408,1172248,1684770,29961,88.91390222,67.64362481
Punjab,Bathinda,30.19052461,75.05685898,46,1388525,743197,645328,844868,11284,86.83135158,60.84643777
Punjab,Faridkot,30.59118725,74.79751554,45,617508,326671,290837,381285,4348,89.03055368,61.74575876
Punjab,Fatehgarh Sahib,30.64290947,76.36208395,40,600163,320795,279368,426033,5138,87.08614536,70.98621541
Punjab,Firozpur,30.63407535,74.40245732,43,2029074,1071637,957437,1227511,10042,89.3434064,60.49611793
Punjab,Gurdaspur,32.04283371,75.32040644,35,2298323,1212617,1085706,1634719,14428,89.53412331,71.1265997
Punjab,Hoshiarpur,31.5515717,75.84698574,38,1586625,809057,777568,1199699,13747,96.10793801,75.61326716
Punjab,Jalandhar,31.25033691,75.54400351,37,2193590,1145211,1048379,1622537,39082,91.54461492,73.96719533
Punjab,Kapurthala,31.33659264,75.47641166,36,815168,426311,388857,576567,9732,91.21439512,70.72983729
Punjab,Ludhiana,30.76596397,75.83110852,41,3498739,1867816,1630923,2560225,58589,87.31711261,73.17564986
Punjab,Mansa,29.91954771,75.43049229,47,769751,408732,361019,423560,2673,88.32658074,55.0255862
Punjab,Moga,30.75654007,75.16008451,42,995746,525920,469826,627889,7897,89.33411926,63.0571451
Punjab,Muktsar,30.31243303,74.55187477,44,901896,475622,426274,524848,4571,89.62453377,58.1938494
Punjab,Patiala,30.21454038,76.27505894,48,1895686,1002522,893164,1266791,24274,89.09171071,66.82493831
Punjab,Rupnagar,30.91093733,76.53743501,51,684627,357485,327142,502731,6600,91.51209142,73.43137212
Punjab,Sangrur,30.1850452,75.89437014,53,1655169,878029,777140,1002077,10736,88.50960504,60.54227695
Rajasthan,Ajmer,26.19930038,74.69904192,119,2583052,1324085,1258967,1526673,13499,95.08203778,59.10345591
Rajasthan,Alwar,27.55271738,76.65359631,104,3674179,1939026,1735153,2182476,9750,89.4858037,59.40037216
Rajasthan,Banswara,23.45364203,74.44246868,125,1797485,907754,889731,829343,2324,98.0145502,46.13907766
Rajasthan,Baran,24.98023243,76.86210652,128,1222755,633945,588810,693307,1363,92.88029719,56.70040196
Rajasthan,Barmer,25.77070908,71.50297126,115,2603751,1369022,1234729,1188322,2766,90.19058861,45.63884949
Rajasthan,Bharatpur,27.32411858,77.21752077,105,2548462,1355726,1192736,1480869,4179,87.9776592,58.10834142
Rajasthan,Bhilwara,25.45119768,74.63947596,122,2408523,1220736,1187787,1256126,6207,97.30089061,52.15337367
Rajasthan,Bikaner,28.12489068,73.26943323,101,2363937,1240801,1123136,1278801,7607,90.5170128,54.09623861
Rajasthan,Bundi,25.48580716,75.79984074,121,1110906,577160,533746,585044,1392,92.4779957,52.66368172
Rajasthan,Chittaurgarh,24.63162376,74.80010998,126,1544338,783171,761167,821825,4941,97.19039648,53.2153583
Rajasthan,Churu,28.29330376,74.65846427,102,2039547,1051446,988101,1149269,2577,93.97543954,56.34922853
Rajasthan,Dausa,26.91234818,76.57342097,109,1634409,857787,776622,938051,1719,90.5378608,57.3938959
Rajasthan,Dhaulpur,26.72397055,77.7447622,106,1206516,653647,552869,683098,1330,84.58219804,56.61740085
Rajasthan,Dungarpur,23.75104808,73.84765641,124,1388552,696532,692020,681591,1477,99.35221928,49.08645841
Rajasthan,Ganganagar,29.25678541,73.56192303,99,1969168,1043340,925828,1193343,6295,88.73694098,60.60138089
Rajasthan,Hanumangarh,29.18133518,74.74632573,100,1774692,931184,843508,1034136,3360,90.58446021,58.2712944
Rajasthan,Jaipur,27.03345929,75.77117286,110,6626178,3468507,3157671,4300965,76565,91.03833436,64.90868492
Rajasthan,Jaisalmer,26.86900839,71.18371877,114,669919,361708,308211,308653,754,85.20989306,46.07318198
Rajasthan,Jalor,25.07578094,72.18647262,116,1828730,936634,892096,829582,1585,95.24488754,45.36383173
Rajasthan,Jhalawar,24.24725541,76.11242892,129,1411129,725143,685986,739792,1750,94.60009957,52.42554012
Rajasthan,Jhunjhunun,28.13517401,75.52840894,103,2137045,1095896,1041149,1370360,4828,95.00436173,64.12405916
Rajasthan,Jodhpur,26.67846084,73.00450847,113,3687165,1923928,1763237,2031532,19335,91.64776437,55.09739868
Rajasthan,Karauli,26.51901556,76.96081818,107,1458248,783639,674609,805849,1059,86.08670574,55.26145073
Rajasthan,Kota,25.17571808,76.18618928,127,1951014,1021161,929853,1298345,12843,91.05841292,66.54719033
Rajasthan,Nagaur,27.07862016,74.14215667,112,3307743,1696325,1611418,1758624,4449,94.9946502,53.16688751
Rajasthan,Pali,25.80490394,73.55285641,118,2037573,1025422,1012151,1085693,4043,98.70580112,53.28363695
Rajasthan,Rajsamand,25.24894767,73.96570216,123,1156597,581339,575258,619139,1989,98.95396662,53.53109164
Rajasthan,Sawai Madhopur,26.25108118,76.42192839,108,1335551,704031,631520,741748,1887,89.70059557,55.53872522
Rajasthan,Sikar,27.64644059,75.29317423,111,2677333,1374990,1302343,1652117,5647,94.71654339,61.70756495
Rajasthan,Sirohi,24.79769053,72.75309132,117,1036346,534231,502115,476806,2146,93.98836833,46.00837944
Rajasthan,Tonk,26.15393507,75.79192216,120,1421326,728136,693190,749659,1908,95.20062186,52.74363517
Rajasthan,Udaipur,24.44076752,73.8402984,130,3068420,1566801,1501619,1582629,14211,95.83980352,51.57797824
Sikkim,East,27.29600353,88.74908392,93,1709346,907500,801846,1352998,80037,88.35768595,79.1529626
Tamil Nadu,Ariyalur,11.19051484,79.22249644,616,754894,374703,380191,480604,1749,101.4646267,63.66509735
Tamil Nadu,Chennai,13.05809891,80.28139152,603,4646732,2335844,2310888,3776276,217368,98.93160673,81.2673509
Tamil Nadu,Coimbatore,10.871377,77.07619012,632,3458045,1729297,1728748,2635907,63273,99.968253,76.22535276
Tamil Nadu,Cuddalore,11.57587301,79.63002365,617,2605914,1311697,1294217,1815281,15396,98.66737516,69.66005018
Tamil Nadu,Dharmapuri,12.3001412,78.11509813,630,1506843,774303,732540,917709,3651,94.60637502,60.9027616
Tamil Nadu,Dindigul,10.37780139,77.7801128,612,2159775,1080938,1078837,1481834,9155,99.80563178,68.61057286
Tamil Nadu,Erode,11.26701216,77.42034335,610,2251744,1129868,1121876,1492662,18604,99.29266074,66.28915188
Tamil Nadu,Kancheepuram,12.49642476,80.0882036,604,3998252,2012958,1985294,3013382,100322,98.62570406,75.36748559
Tamil Nadu,Kanniyakumari,8.1834663,77.32053064,629,1870374,926345,944029,1548738,15673,101.909008,82.80365317
Tamil Nadu,Karur,10.79532777,78.08749687,613,1064493,528184,536309,727044,4915,101.5382897,68.29955669
Tamil Nadu,Madurai,9.904313833,78.01366033,623,3038252,1526475,1511777,2273430,34097,99.03712802,74.82690705
Tamil Nadu,Nagapattinam,10.78946816,79.79437299,618,1616450,798127,818323,1213008,5585,102.5304244,75.04147979
Tamil Nadu,Namakkal,11.33766638,78.14624841,609,1726601,869280,857321,1176131,8960,98.62426376,68.11828558
Tamil Nadu,Perambalur,11.26013776,78.86034012,615,565223,282157,283066,375823,1507,100.3221611,66.49110174
Tamil Nadu,Pudukkottai,10.13051482,79.05444484,621,1618345,803188,815157,1110545,4494,101.4901866,68.62226534
Tamil Nadu,Ramanathapuram,9.312869952,78.99185362,626,1353445,682658,670787,978946,5172,98.26106191,72.32994322
Tamil Nadu,Salem,11.6293242,78.2478258,608,3482056,1781571,1700485,2285562,20660,95.44862371,65.63828956
Tamil Nadu,Sivaganga,9.960306581,78.56535729,622,1339101,668672,670429,959744,5773,100.2627596,71.67077017
Tamil Nadu,Thanjavur,10.38769226,79.31948691,620,2405890,1182416,1223474,1790998,13495,103.472382,74.44222304
Tamil Nadu,Theni,9.924066667,77.43458833,624,1245899,625683,620216,870080,4667,99.12623485,69.83551636
Tamil Nadu,Thiruvallur,13.2758581,80.19724703,602,3728104,1876062,1852042,2791721,75634,98.71965852,74.88313094
Tamil Nadu,Thiruvarur,10.36892741,79.60322894,619,1264277,626693,637584,946471,4416,101.7378525,74.862629
Tamil Nadu,Tiruvannamalai,12.41931895,79.23265632,606,2464875,1235889,1228986,1626813,6445,99.44145469,65.99981743
Tamil Nadu,Vellore,12.78488263,79.02643284,605,3936331,1961688,1974643,2773928,20623,100.6604006,70.46988681
Tamil Nadu,Virudhunagar,9.468872196,77.87641469,625,1942288,967709,974579,1398788,10219,100.7099242,72.01753808
Tripura,Dhalai,23.78136048,91.94654283,291,378230,194544,183686,276217,273,94.41874332,73.02884488
Tripura,North Tripura,24.12173976,92.17842538,292,693947,352860,341087,520402,997,96.66354928,74.99160599
Tripura,South Tripura,23.2118741,91.60658076,290,876001,447544,428457,646810,948,95.73516794,73.8366737
Tripura,West Tripura,23.78016624,91.41310789,289,1725739,879428,846311,1361354,6394,96.23425681,78.88527755
Uttar Pradesh,Agra,26.99512975,78.05278292,146,4418797,2364953,2053844,2680510,27183,86.84502398,60.66153299
Uttar Pradesh,Aligarh,27.93748577,78.00146831,143,3673889,1951996,1721893,2092567,13634,88.21191232,56.95781772
Uttar Pradesh,Allahabad,25.39203866,82.05172447,175,5954391,3131807,2822584,3665727,24122,90.12637113,61.56342437
Uttar Pradesh,Ambedkar Nagar,26.39119026,82.68282143,178,2397888,1212410,1185478,1486939,2509,97.77863924,62.01036078
Uttar Pradesh,Auraiya,26.66892394,79.42637057,162,1379545,740040,639505,930836,2404,86.41492352,67.47413096
Uttar Pradesh,Azamgarh,26.00829095,83.01220251,191,4613913,2285004,2328909,2771917,6652,101.9214408,60.07735733
Uttar Pradesh,Baghpat,29.0457935,77.302663,139,1303048,700070,602978,797970,2989,86.13110118,61.23872643
Uttar Pradesh,Bahraich,27.6917763,81.46779783,180,3487731,1843884,1643847,1398368,2681,89.15132405,40.09391779
Uttar Pradesh,Ballia,25.86075638,84.03651979,193,3239774,1672902,1566872,1963590,4672,93.66191205,60.60885728
Uttar Pradesh,Balrampur,27.44907654,82.47158326,182,2148665,1114721,1033944,868357,1551,92.75361279,40.41379182
Uttar Pradesh,Banda,25.3518859,80.52487391,170,1799410,965876,833534,1002937,1655,86.29824118,55.73699157
Uttar Pradesh,Bara Banki,26.92277703,81.35762351,176,3260699,1707073,1553626,1692458,3159,91.01110497,51.9047603
Uttar Pradesh,Bareilly,28.51101941,79.43187072,150,4448359,2357665,2090694,2191759,15164,88.67646591,49.27118068
Uttar Pradesh,Basti,26.83388045,82.69790591,185,2464464,1255272,1209192,1393783,3423,96.32908246,56.5552185
Uttar Pradesh,Bijnor,29.31397426,78.45098815,134,3682713,1921215,1761498,2135393,7303,91.68666703,57.98423608
Uttar Pradesh,Bulandshahr,28.34875862,78.01082759,142,3499171,1845260,1653911,2031656,7865,89.63024181,58.06106646
Uttar Pradesh,Chandauli,25.11808596,83.25307063,196,1952756,1017905,934851,1174606,3492,91.8406924,60.15119144
Uttar Pradesh,Chitrakoot,25.15992462,81.07666088,171,991730,527721,464009,531072,827,87.92695383,53.55005899
Uttar Pradesh,Deoria,26.42218857,83.82440707,190,3100946,1537436,1563510,1875239,4469,101.6959405,60.47312659
Uttar Pradesh,Etah,27.59115531,78.70021858,201,1774480,947339,827141,1055202,2635,87.3120393,59.46542086
Uttar Pradesh,Etawah,26.7881767,79.07621806,161,1581810,845856,735954,1062003,2964,87.00700829,67.13846796
Uttar Pradesh,Faizabad,26.60589185,82.00783531,177,2470996,1259628,1211368,1450901,4746,96.16871013,58.7172541
Uttar Pradesh,Farrukhabad,27.45063298,79.44062846,159,1885204,1006240,878964,1092677,2624,87.35132772,57.96067693
Uttar Pradesh,Fatehpur,25.8374362,80.85416203,172,2632733,1384722,1248011,1512166,3385,90.12718798,57.43711953
Uttar Pradesh,Firozabad,27.20963993,78.42660625,147,2498156,1332046,1166110,1521806,5834,87.54277255,60.91717251
Uttar Pradesh,Gautam Buddha Nagar,28.39331104,77.52462468,141,1648115,890214,757901,1122947,53181,85.1369446,68.13523328
Uttar Pradesh,Ghaziabad,28.74997309,77.67441879,140,4681645,2488834,2192811,3123264,78116,88.10595644,66.71296094
Uttar Pradesh,Ghazipur,25.62472478,83.53608546,195,3620268,1855075,1765193,2197549,5309,95.15480506,60.70127957
Uttar Pradesh,Gonda,27.15721555,82.0226888,183,3433919,1787146,1646773,1679994,4313,92.1454095,48.92351858
Uttar Pradesh,Gorakhpur,26.63315887,83.35495604,188,4440895,2277777,2163118,2700328,14597,94.96618853,60.80594114
Uttar Pradesh,Hardoi,27.33740909,80.26411768,155,4092845,2191442,1901403,2221601,3845,86.76492465,54.28011567
Uttar Pradesh,Jalaun,26.06795459,79.36686911,165,1689974,906092,783882,1075196,2217,86.51240713,63.62204389
Uttar Pradesh,Jaunpur,25.70141281,82.54315352,194,4494204,2220465,2273739,2731677,8002,102.3992272,60.78222083
Uttar Pradesh,Jhansi,25.45581535,78.89954581,166,1998603,1057436,941167,1304513,8517,89.00463007,65.27124196
Uttar Pradesh,Jyotiba Phule Nagar,28.87049898,78.39009365,137,1840221,963449,876772,983110,2825,91.00346775,53.42347468
Uttar Pradesh,Kannauj,26.99398862,79.6443794,160,1656616,881776,774840,1017087,2488,87.872657,61.39545918
Uttar Pradesh,Kanpur Dehat,26.43047641,79.98710083,163,1796184,963255,832929,1170243,2682,86.47024931,65.15162144
Uttar Pradesh,Kaushambi,25.53587532,81.41811282,174,1599596,838485,761111,813424,1503,90.77216647,50.85184009
Uttar Pradesh,Kushinagar,26.89253068,83.92261542,189,3564544,1818055,1746489,1954820,3486,96.06359544,54.84067527
Uttar Pradesh,Lalitpur,24.58877161,78.60082331,167,1221592,641011,580581,641191,1079,90.57270468,52.48814662
Uttar Pradesh,Lucknow,26.83823359,80.89706027,157,4589838,2394476,2195362,3127260,68506,91.68444369,68.13443089
Uttar Pradesh,Mahoba,25.3452967,79.67863003,169,875958,466358,409600,488106,1316,87.82952153,55.72253464
Uttar Pradesh,Mainpuri,27.17386862,79.03501851,148,1868529,993377,875152,1203885,2642,88.09867754,64.4295593
Uttar Pradesh,Mathura,27.59390433,77.62153417,145,2547184,1367125,1180059,1507746,8726,86.31683277,59.19266139
Uttar Pradesh,Mau,26.01082204,83.50582654,192,2205968,1114709,1091259,1363044,2656,97.89631195,61.78892894
Uttar Pradesh,Meerut,29.02957626,77.80611006,138,3443689,1825743,1617946,2141488,23717,88.61849669,62.18587102
Uttar Pradesh,Mirzapur,25.10207959,82.60126629,199,2496970,1312302,1184668,1428683,4447,90.27403753,57.2166666
Uttar Pradesh,Moradabad,28.85177041,78.73580193,135,4772006,2503186,2268820,2263848,11690,90.63729184,47.44017505
Uttar Pradesh,Muzaffarnagar,29.47050798,77.64017848,133,4143512,2193434,1950078,2417339,10077,88.90525085,58.34034027
Uttar Pradesh,Pilibhit,28.52024175,79.90103974,151,2031007,1072002,959005,1061095,2870,89.45925474,52.24477316
Uttar Pradesh,Pratapgarh,25.86484273,81.93530049,131,867848,437744,430104,401515,716,98.25468767,46.26559029
Uttar Pradesh,Pratapgarh,25.86484273,81.93530049,173,3209141,1606085,1603056,1931559,5149,99.81140475,60.1892843
Uttar Pradesh,Rae Bareli,26.25390284,81.22260463,158,3405559,1752542,1653017,1965843,5184,94.32110614,57.72453215
Uttar Pradesh,Rampur,28.83244727,79.10977333,136,2335819,1223889,1111930,1043666,3847,90.8521933,44.68094488
Uttar Pradesh,Saharanpur,30.03381165,77.59905148,132,3466382,1834106,1632276,2077108,9699,88.99572871,59.9214974
Uttar Pradesh,Sant Kabir Nagar,26.79159652,83.03877643,186,1715183,869656,845527,954949,2031,97.22545466,55.67621647
Uttar Pradesh,Shahjahanpur,27.99138935,79.83022753,152,3006538,1606403,1400135,1490930,3889,87.15963553,49.58959441
Uttar Pradesh,Sitapur,27.50199596,80.85288881,154,4483992,2375264,2108728,2283733,3874,88.77867892,50.93080005
Uttar Pradesh,Sonbhadra,24.46693269,83.06816325,200,1862559,971344,891215,985708,5149,91.7507083,52.922243
Uttar Pradesh,Sultanpur,26.28463864,82.05710457,179,3797117,1914586,1882531,2239902,5956,98.32574771,58.98954391
Uttar Pradesh,Unnao,26.63163991,80.63677329,156,3108367,1630087,1478280,1773584,3476,90.68718418,57.05838468
Uttar Pradesh,Varanasi,25.36057089,82.82529667,197,3676841,1921857,1754984,2403903,19214,91.31709591,65.37957448
Uttaranchal,Almora,29.68353213,79.50165064,64,622506,291081,331425,436497,1830,113.8600596,70.11932415
Uttaranchal,Bageshwar,29.98703393,79.83954354,63,259898,124326,135572,179483,435,109.0455737,69.05901546
Uttaranchal,Chamoli,30.58338611,79.56281096,57,391605,193991,197614,280556,899,101.8676124,71.64259905
Uttaranchal,Champawat,29.29142394,80.07720212,65,259648,131125,128523,177726,548,98.01563394,68.44882302
Uttaranchal,Pithoragarh,30.14720632,80.34229231,62,483439,239306,244133,345550,1344,102.0170827,71.47747699
Uttaranchal,Tehri Garhwal,30.46370092,78.48783793,59,618931,297986,320945,407994,1366,107.7047244,65.91914123
Uttaranchal,Udham Singh Nagar,29.02779578,79.45629005,67,1648902,858783,790119,1037839,7883,92.00449939,62.94121785
Uttaranchal,Uttarkashi,30.96895855,78.56880615,56,330086,168597,161489,215126,602,95.78402937,65.17271257
West Bengal,Bankura,23.08128089,87.12640054,339,3596674,1838095,1758579,2232992,4273,95.67399944,62.08491512
West Bengal,Barddhaman,23.44445389,87.81505811,335,7717563,3966889,3750674,5247208,32323,94.54950718,67.99047834
West Bengal,Birbhum,24.06389343,87.65153089,334,3502404,1790920,1711484,2158447,5210,95.56451433,61.62758494
West Bengal,Dakshin Dinajpur,25.34209436,88.6982168,331,1676276,857199,819077,1083685,2518,95.55272463,64.6483634
West Bengal,Darjiling,26.83961957,88.33145067,327,1846823,937259,909564,1315585,10943,97.04510706,71.23503443
West Bengal,Haora,22.40167417,87.99421177,341,4850029,2500819,2349210,3605206,30751,93.93762603,74.33369986
West Bengal,Hugli,22.87929265,88.00010265,338,5519145,2814653,2704492,4078388,31725,96.08616053,73.89528632
West Bengal,Jalpaiguri,26.62642031,89.04154375,328,3872846,1983064,1889782,2498780,9322,95.2960671,64.52051024
West Bengal,Kolkata,22.55058148,88.35276481,342,4496694,2356766,2139928,3588137,136618,90.79934113,79.7950005
West Bengal,Maldah,25.08026803,88.17191685,332,3988845,2051541,1937304,2086432,5357,94.43164918,52.30667023
West Bengal,Murshidabad,24.25950655,88.1681686,333,7103807,3627564,3476243,4055834,7951,95.82857808,57.093809
West Bengal,Nadia,23.56410971,88.58293035,336,5167600,2653768,2513832,3480555,12787,94.72689399,67.35341358
West Bengal,Puruliya,23.25419233,86.39685329,340,2930115,1496996,1433119,1624905,3551,95.73298793,55.45533196
West Bengal,Uttar Dinajpur,26.04461917,88.23595232,330,3007134,1551066,1456068,1489667,2883,93.87530898,49.53776586
